name,role,full_address,city,latitude,longitude
Helping Paws NGO,ngo,"123 Rescue St, Andheri West, Mumbai, Maharashtra 400058",Mumbai,19.12,72.85
Animal Rescue Society,ngo,"45 Care Road, Dadar, Mumbai, Maharashtra 400014",Mumbai,19.0176,72.8562
Stray Safe Foundation,ngo,"10 Haven Lane, Borivali East, Mumbai, Maharashtra 400066",Mumbai,19.228825,72.859785
Urban VetCare Clinic,vet,"789 Pet Clinic Park, Bandra East, Mumbai, Maharashtra 400051",Mumbai,19.055,72.844
Companion Animal Hospital,vet,"26 Pet Avenue, Juhu, Mumbai, Maharashtra 400049",Mumbai,19.107,72.826
Paws & Claws Veterinary,vet,"12 Wellness Street, Lower Parel, Mumbai, Maharashtra 400013",Mumbai,18.9938,72.8336
